date,depth_m,temp_c_at_depth,Chlorophyll_ugl,conductivity_mscm,temp_c,turbidity_ftu,salinity_psu,heading,pitch,roll,location
2013-09-11 23:00:01,,,1.51,,,,,,,,node1
2013-09-12 00:00:00,,,1.52,36.06,7.73,,34.98,292.1,1.42,58.6,node1
2013-09-12 00:00:01,255.19,7.54,,,,,,,,,node1
2013-09-12 01:00:00,,,2.27,36.05,7.7,,34.99,291.6,1.43,58.63,node1
2013-09-12 01:00:01,255.51,7.53,,,,,,,,,node1
2013-09-12 02:00:00,,,1.51,36.05,7.67,,35.02,291.1,1.43,58.65,node1
2013-09-12 02:00:01,255.81,7.53,,,,,,,,,node1
2013-09-12 03:00:00,,,1.29,,,,,291.0,1.43,58.66,node1
2013-09-12 03:00:01,256.0,7.53,,,,,,,,,node1
2013-09-12 03:00:02,,,,36.03,7.66,,35.01,,,,node1
2013-09-12 04:00:00,,,,,,,,289.2,1.44,58.68,node1
2013-09-12 04:00:01,256.06,7.52,1.41,,,,,,,,node1
2013-09-12 04:00:02,,,,36.0,7.63,,35.01,,,,node1
2013-09-12 05:00:00,,,,,,,,289.8,1.44,58.66,node1
2013-09-12 05:00:01,255.93,7.54,1.43,,,,,,,,node1
2013-09-12 05:00:02,,,,36.01,7.66,,34.99,,,,node1
2013-09-12 06:00:00,,,,,,,,289.8,1.4,58.68,node1
2013-09-12 06:00:01,255.69,7.54,2.0,,,,,,,,node1
2013-09-12 06:00:02,,,,36.01,7.64,,35.01,,,,node1
2013-09-12 07:00:00,,,1.57,,,,,290.3,1.42,58.63,node1
2013-09-12 07:00:01,255.39,7.53,,,,,,,,,node1
2013-09-12 07:00:02,,,,36.02,7.64,,35.02,,,,node1
2013-09-12 08:00:00,,,1.41,,,,,289.9,1.42,58.68,node1
2013-09-12 08:00:01,255.09,7.54,,,,,,,,,node1
2013-09-12 08:00:02,,,,36.05,7.66,,35.03,,,,node1
2013-09-12 09:00:00,,,1.71,,,,,290.4,1.43,58.65,node1
2013-09-12 09:00:01,254.87,7.55,,,,,,,,,node1
2013-09-12 09:00:02,,,,36.03,7.67,,35.0,,,,node1
2013-09-12 10:00:00,,,1.47,,,,,289.9,1.41,58.67,node1
2013-09-12 10:00:01,254.77,7.59,,,,,,,,,node1
2013-09-12 10:00:02,,,,36.07,7.72,,35.0,,,,node1
2013-09-12 11:00:00,,,1.43,,,,,290.5,1.43,58.63,node1
2013-09-12 11:00:01,254.84,7.59,,,,,,,,,node1
2013-09-12 11:00:02,,,,36.07,7.72,,35.0,,,,node1
2013-09-12 12:00:00,,,,,,,,290.0,1.44,58.66,node1
2013-09-12 12:00:01,,,1.57,,,,,,,,node1
2013-09-12 12:00:02,255.03,7.59,,36.07,7.72,,35.0,,,,node1
2013-09-12 13:00:00,,,,,,,,290.5,1.43,58.66,node1
2013-09-12 13:00:01,,,1.66,,,,,,,,node1
2013-09-12 13:00:02,255.31,7.6,,36.07,7.74,,34.98,,,,node1
2013-09-12 14:00:00,,,,,,,,290.1,1.41,58.68,node1
2013-09-12 14:00:01,,,1.49,,,,,,,,node1
2013-09-12 14:00:02,255.6,7.61,,36.07,7.74,,34.98,,,,node1
2013-09-12 15:00:00,,,,,,,,290.5,1.42,58.64,node1
2013-09-12 15:00:01,,,1.56,,,,,,,,node1
2013-09-12 15:00:02,255.83,7.6,,36.07,7.76,,34.96,,,,node1
2013-09-12 16:00:00,255.94,7.61,1.54,,,,,290.1,1.41,58.67,node1
2013-09-12 16:00:02,,,,36.11,7.78,,34.98,,,,node1
2013-09-12 17:00:00,255.92,7.6,1.38,,,,,290.6,1.38,58.65,node1
2013-09-12 17:00:02,,,,36.06,7.76,,34.95,,,,node1
2013-09-12 18:00:00,255.77,7.6,1.55,,,,,290.1,1.41,58.66,node1
2013-09-12 18:00:02,,,,36.04,7.76,,34.92,,,,node1
2013-09-12 19:00:00,255.52,7.59,1.47,,,,,290.5,1.4,58.65,node1
2013-09-12 19:00:02,,,,36.04,7.73,,34.95,,,,node1
2013-09-12 20:00:00,,,,,,,,290.1,1.4,58.67,node1
2013-09-12 20:00:01,255.25,7.59,1.65,,,,,,,,node1
2013-09-12 20:00:02,,,,36.04,7.75,,34.93,,,,node1
2013-09-12 21:00:00,,,,,,,,290.4,1.42,58.64,node1
2013-09-12 21:00:01,255.01,7.59,1.44,,,,,,,,node1
2013-09-12 21:00:02,,,,36.04,7.74,,34.94,,,,node1
2013-09-12 22:00:00,,,,,,,,290.3,1.41,58.63,node1
2013-09-12 22:00:01,254.87,7.59,1.46,,,,,,,,node1
2013-09-12 22:00:02,,,,36.02,7.75,,34.91,,,,node1
2013-09-12 23:00:00,,,,,,,,289.9,1.4,58.68,node1
2013-09-12 23:00:01,254.85,7.61,1.97,,,,,,,,node1
2013-09-12 23:00:02,,,,36.04,7.8,,34.88,,,,node1
2013-09-13 00:00:00,,,1.66,,,,,290.1,1.41,58.66,node1
2013-09-13 00:00:01,254.96,7.59,,,,,,,,,node1
2013-09-13 00:00:02,,,,36.03,7.73,,34.94,,,,node1
2013-09-13 01:00:00,,,5.46,,,,,289.9,1.38,58.67,node1
2013-09-13 01:00:01,255.18,7.6,,,,,,,,,node1
2013-09-13 01:00:02,,,,36.03,7.78,,34.89,,,,node1
2013-09-13 02:00:00,,,1.55,,,,,290.2,1.42,58.68,node1
2013-09-13 02:00:01,255.44,7.6,,,,,,,,,node1
2013-09-13 02:00:02,,,,36.02,7.81,,34.85,,,,node1
2013-09-13 03:00:00,,,1.89,,,,,289.9,1.38,58.65,node1
2013-09-13 03:00:01,255.69,7.6,,,,,,,,,node1
2013-09-13 03:00:02,,,,36.02,7.75,,34.91,,,,node1
2013-09-13 04:00:00,,,5.4,,,,,290.2,1.4,58.68,node1
2013-09-13 04:00:02,255.86,7.61,,36.04,7.84,,34.84,,,,node1
2013-09-13 05:00:00,,,,,,,,289.8,1.41,58.67,node1
2013-09-13 05:00:01,,,1.47,,,,,,,,node1
2013-09-13 05:00:02,255.91,7.6,,36.0,7.78,,34.86,,,,node1
2013-09-13 06:00:00,,,,,,,,290.3,1.42,58.64,node1
2013-09-13 06:00:01,,,1.76,,,,,,,,node1
2013-09-13 06:00:02,255.82,7.6,,36.02,7.74,,34.92,,,,node1
2013-09-13 07:00:00,,,,,,,,289.9,1.38,58.68,node1
2013-09-13 07:00:01,,,1.5,36.05,7.73,,34.96,,,,node1
2013-09-13 07:00:02,255.64,7.6,,,,,,,,,node1
2013-09-13 08:00:00,255.39,7.61,,,,,,290.2,1.4,58.67,node1
2013-09-13 08:00:01,,,1.51,36.07,7.73,,34.99,,,,node1
2013-09-13 09:00:00,255.13,7.6,1.52,,,,,289.9,1.4,58.7,node1
2013-09-13 09:00:01,,,,36.05,7.73,,34.96,,,,node1
2013-09-13 10:00:00,254.93,7.59,1.65,,,,,290.2,1.4,58.66,node1
2013-09-13 10:00:01,,,,36.05,7.73,,34.96,,,,node1
2013-09-13 11:00:00,254.85,7.61,1.66,,,,,289.8,1.39,58.69,node1
2013-09-13 11:00:01,,,,36.05,7.77,,34.92,,,,node1
2013-09-13 12:00:00,,,1.51,,,,,290.3,1.41,58.66,node1
2013-09-13 12:00:01,254.88,7.63,,36.04,7.79,,34.89,,,,node1
2013-09-13 13:00:00,,,,,,,,289.9,1.39,58.64,node1
2013-09-13 13:00:01,255.05,7.64,1.42,36.05,7.8,,34.89,,,,node1
2013-09-13 14:00:00,,,,,,,,290.1,1.38,58.68,node1
2013-09-13 14:00:01,255.28,7.67,1.48,36.09,7.9,,34.84,,,,node1
2013-09-13 15:00:00,,,,,,,,290.2,1.4,58.66,node1
2013-09-13 15:00:01,255.55,7.58,1.38,,,,,,,,node1
2013-09-13 15:00:02,,,,35.95,7.73,,34.86,,,,node1
2013-09-13 16:00:00,,,,,,,,289.9,1.38,58.67,node1
2013-09-13 16:00:01,255.77,7.47,1.29,35.81,7.63,,34.8,,,,node1
2013-09-13 17:00:00,,,1.56,,,,,290.3,1.36,58.69,node1
2013-09-13 17:00:01,255.89,7.58,,35.98,7.75,,34.87,,,,node1
2013-09-13 18:00:00,,,1.43,,,,,289.9,1.37,58.68,node1
2013-09-13 18:00:01,255.91,7.57,,35.95,7.73,,34.86,,,,node1
2013-09-13 19:00:00,,,1.39,,,,,290.2,1.37,58.7,node1
2013-09-13 19:00:01,255.8,7.58,,35.81,7.77,,34.67,,,,node1
2013-09-13 20:00:00,,,3.48,,,,,289.8,1.38,58.69,node1
2013-09-13 20:00:01,,,,35.93,7.77,,34.79,,,,node1
2013-09-13 20:00:02,255.61,7.58,,,,,,,,,node1
2013-09-13 21:00:00,,,1.89,,,,,290.2,1.36,58.7,node1
2013-09-13 21:00:01,,,,36.03,7.74,,34.93,,,,node1
2013-09-13 21:00:02,255.36,7.6,,,,,,,,,node1
2013-09-13 22:00:00,,,2.39,,,,,289.8,1.36,58.68,node1
2013-09-13 22:00:01,,,,36.06,7.81,,34.9,,,,node1
2013-09-13 22:00:02,255.14,7.6,,,,,,,,,node1
2013-09-13 23:00:00,,,,,,,,290.2,1.39,58.67,node1
2013-09-13 23:00:01,,,2.01,36.06,7.78,,34.93,,,,node1
2013-09-13 23:00:02,254.97,7.66,,,,,,,,,node1
2013-09-14 00:00:00,254.93,7.58,1.69,,,,,289.8,1.37,58.68,node1
2013-09-14 00:00:01,,,,36.0,7.72,,34.92,,,,node1
2013-09-14 01:00:00,255.0,7.58,0.0,,,,,290.1,1.39,58.68,node1
2013-09-14 01:00:01,,,,35.99,7.71,,34.92,,,,node1
2013-09-14 02:00:00,255.13,7.58,,,,,,289.8,1.39,58.68,node1
2013-09-14 02:00:01,,,1.79,36.0,7.72,,34.92,,,,node1
2013-09-14 03:00:00,255.35,7.58,,,,,,290.2,1.38,58.68,node1
2013-09-14 03:00:01,,,1.85,35.99,7.73,,34.9,,,,node1
2013-09-14 04:00:00,,,,,,,,289.6,1.36,58.69,node1
2013-09-14 04:00:01,255.59,7.59,0.0,36.01,7.74,,34.91,,,,node1
2013-09-14 05:00:00,,,,,,,,289.8,1.4,58.68,node1
2013-09-14 05:00:01,255.79,7.59,1.76,36.0,7.72,,34.92,,,,node1
2013-09-14 06:00:00,,,,,,,,289.9,1.39,58.66,node1
2013-09-14 06:00:01,255.89,7.6,0.0,36.02,7.73,,34.93,,,,node1
2013-09-14 07:00:00,,,1.66,,,,,289.9,1.36,58.65,node1
2013-09-14 07:00:01,255.85,7.61,,36.03,7.76,,34.91,,,,node1
2013-09-14 08:00:00,,,1.75,,,,,289.9,1.37,58.68,node1
2013-09-14 08:00:01,255.7,7.62,,36.05,7.78,,34.91,,,,node1
2013-09-14 09:00:00,,,1.95,,,,,289.7,1.35,58.68,node1
2013-09-14 09:00:01,255.49,7.63,,36.08,7.79,,34.94,,,,node1
2013-09-14 10:00:00,,,1.89,,,,,290.1,1.35,58.71,node1
2013-09-14 10:00:01,255.26,7.64,,36.07,7.83,,34.89,,,,node1
2013-09-14 11:00:00,,,2.91,,,,,289.7,1.35,58.71,node1
2013-09-14 11:00:01,255.05,7.64,,36.05,7.85,,34.84,,,,node1
2013-09-14 12:00:00,,,,,,,,290.2,1.36,58.65,node1
2013-09-14 12:00:01,,,1.76,36.08,7.82,,34.91,,,,node1
2013-09-14 12:00:02,254.92,7.64,,,,,,,,,node1
2013-09-14 13:00:00,,,,,,,,289.8,1.33,58.67,node1
2013-09-14 13:00:01,,,1.85,36.04,7.82,,34.86,,,,node1
2013-09-14 13:00:02,254.9,7.63,,,,,,,,,node1
2013-09-14 14:00:00,,,,,,,,290.1,1.35,58.68,node1
2013-09-14 14:00:01,,,1.93,36.03,7.77,,34.9,,,,node1
2013-09-14 14:00:02,254.99,7.62,,,,,,,,,node1
2013-09-14 15:00:00,,,,,,,,289.7,1.34,58.69,node1
2013-09-14 15:00:01,,,1.81,36.02,7.78,,34.88,,,,node1
2013-09-14 15:00:02,255.19,7.62,,,,,,,,,node1
2013-09-14 16:00:00,255.43,7.62,,,,,,290.1,1.38,58.7,node1
2013-09-14 16:00:01,,,1.72,36.03,7.77,,34.9,,,,node1
2013-09-14 17:00:00,255.66,7.62,1.82,,,,,289.7,1.36,58.68,node1
2013-09-14 17:00:01,,,,36.01,7.77,,34.88,,,,node1
2013-09-14 18:00:00,255.83,7.61,1.94,,,,,290.0,1.35,58.68,node1
2013-09-14 18:00:01,,,,36.0,7.77,,34.87,,,,node1
2013-09-14 19:00:00,255.9,7.62,2.24,,,,,289.5,1.36,58.69,node1
2013-09-14 19:00:01,,,,36.02,7.77,,34.89,,,,node1
2013-09-14 20:00:00,,,2.08,,,,,290.0,1.33,58.69,node1
2013-09-14 20:00:01,255.86,7.64,,36.03,7.8,,34.87,,,,node1
2013-09-14 21:00:00,,,,,,,,289.6,1.35,58.66,node1
2013-09-14 21:00:01,255.7,7.62,1.87,36.04,7.76,,34.92,,,,node1
2013-09-14 22:00:00,,,,,,,,289.8,1.35,58.68,node1
2013-09-14 22:00:01,255.46,7.62,1.72,36.03,7.77,,34.9,,,,node1
2013-09-14 23:00:00,,,,,,,,289.9,1.34,58.68,node1
2013-09-14 23:00:01,255.21,7.63,2.67,35.77,7.83,,34.56,,,,node1
2013-09-15 00:00:00,,,,,,,,289.8,1.33,58.71,node1
2013-09-15 00:00:01,255.0,7.72,2.39,36.23,8.0,,34.89,,,,node1
2013-09-15 01:00:00,,,,,,,,290.0,1.35,58.66,node1
2013-09-15 01:00:01,254.88,7.62,3.59,36.04,7.79,,34.89,,,,node1
2013-09-15 02:00:00,,,,,,,,289.6,1.34,58.68,node1
2013-09-15 02:00:01,254.89,7.63,1.61,36.1,7.76,,34.99,,,,node1
2013-09-15 03:00:00,,,,,,,,290.1,1.35,58.68,node1
2013-09-15 03:00:01,255.01,7.58,1.48,36.07,7.73,,34.99,,,,node1
2013-09-15 04:00:00,,,1.36,,,,,289.5,1.33,58.68,node1
2013-09-15 04:00:01,,,,36.05,7.69,,35.0,,,,node1
2013-09-15 04:00:02,255.23,7.56,,,,,,,,,node1
2013-09-15 05:00:00,,,1.53,,,,,290.0,1.33,58.66,node1
2013-09-15 05:00:01,,,,36.08,7.75,,34.98,,,,node1
2013-09-15 05:00:02,255.48,7.59,,,,,,,,,node1
2013-09-15 06:00:00,,,1.69,,,,,289.5,1.34,58.69,node1
2013-09-15 06:00:01,,,,36.15,7.8,,35.0,,,,node1
2013-09-15 06:00:02,255.73,7.65,,,,,,,,,node1
2013-09-15 07:00:00,,,1.33,,,,,289.9,1.35,58.7,node1
2013-09-15 07:00:01,,,,36.16,7.8,,35.01,,,,node1
2013-09-15 07:00:02,255.87,7.65,,,,,,,,,node1
2013-09-15 08:00:00,255.91,7.63,1.49,,,,,289.5,1.33,58.69,node1
2013-09-15 08:00:01,,,,36.13,7.79,,34.99,,,,node1
2013-09-15 09:00:00,255.82,7.62,,,,,,290.0,1.34,58.66,node1
2013-09-15 09:00:01,,,1.41,36.11,7.76,,35.0,,,,node1
2013-09-15 10:00:00,255.63,7.68,,,,,,289.5,1.35,58.67,node1
2013-09-15 10:00:01,,,1.55,36.18,7.81,,35.02,,,,node1
2013-09-15 11:00:00,255.38,7.72,,,,,,290.0,1.35,58.67,node1
2013-09-15 11:00:01,,,1.36,36.06,7.88,,34.83,,,,node1
2013-09-15 12:00:00,255.12,7.7,,,,,,289.6,1.36,58.68,node1
2013-09-15 12:00:01,,,1.45,36.07,7.87,,34.85,,,,node1
2013-09-15 13:00:00,,,,,,,,290.1,1.32,58.68,node1
2013-09-15 13:00:01,254.93,7.68,2.65,36.05,7.85,,34.84,,,,node1
2013-09-15 14:00:00,,,,,,,,289.8,1.32,58.69,node1
2013-09-15 14:00:01,254.86,7.66,2.26,36.14,7.81,,34.98,,,,node1
2013-09-15 15:00:00,,,1.37,,,,,289.8,1.32,58.68,node1
2013-09-15 15:00:01,254.91,7.67,,36.16,7.83,,34.98,,,,node1
2013-09-15 16:00:00,,,1.46,,,,,290.1,1.34,58.66,node1
2013-09-15 16:00:01,255.1,7.72,,36.23,7.87,,35.02,,,,node1
2013-09-15 17:00:00,,,1.46,,,,,289.7,1.31,58.68,node1
2013-09-15 17:00:01,255.36,7.72,,36.23,7.86,,35.03,,,,node1
2013-09-15 18:00:00,,,0.0,,,,,290.0,1.34,58.68,node1
2013-09-15 18:00:01,255.64,7.64,,36.14,7.76,,35.03,,,,node1
2013-09-15 19:00:00,,,1.91,,,,,289.6,1.32,58.69,node1
2013-09-15 19:00:01,255.87,7.59,,36.09,7.74,,35.0,,,,node1
2013-09-15 20:00:00,,,,,,,,290.1,1.34,58.69,node1
2013-09-15 20:00:01,255.99,7.59,0.0,36.06,7.73,,34.98,,,,node1
2013-09-15 21:00:00,,,,,,,,289.6,1.34,58.7,node1
2013-09-15 21:00:01,,,1.57,36.04,7.71,,34.97,,,,node1
2013-09-15 21:00:02,255.96,7.57,,,,,,,,,node1
2013-09-15 22:00:00,,,,,,,,290.0,1.33,58.68,node1
2013-09-15 22:00:01,,,1.46,36.08,7.74,,34.99,,,,node1
2013-09-15 22:00:02,255.81,7.61,,,,,,,,,node1
2013-09-15 23:00:00,,,,,,,,289.6,1.31,58.7,node1
2013-09-15 23:00:01,,,1.45,36.12,7.76,,35.01,,,,node1
2013-09-15 23:00:02,255.54,7.62,,,,,,,,,node1
2013-09-16 00:00:00,,,,,,,,290.1,1.34,58.66,node1
2013-09-16 00:00:01,,,1.49,36.13,7.77,,35.01,,,,node1
2013-09-16 00:00:02,255.23,7.63,,,,,,,,,node1
2013-09-16 01:00:00,254.96,7.63,,,,,,289.6,1.34,58.68,node1
2013-09-16 01:00:01,,,0.0,36.13,7.77,,35.01,,,,node1
2013-09-16 02:00:00,254.77,7.63,1.35,,,,,290.0,1.33,58.67,node1
2013-09-16 02:00:01,,,,36.1,7.79,,34.96,,,,node1
2013-09-16 03:00:00,254.74,7.65,1.46,,,,,289.7,1.35,58.68,node1
2013-09-16 03:00:01,,,,36.16,7.8,,35.01,,,,node1
2013-09-16 04:00:00,254.85,7.65,1.71,,,,,290.1,1.33,58.69,node1
2013-09-16 04:00:01,,,,36.15,7.78,,35.02,,,,node1
2013-09-16 05:00:00,,,1.55,,,,,289.7,1.31,58.68,node1
2013-09-16 05:00:01,255.09,7.68,,36.18,7.82,,35.01,,,,node1
2013-09-16 06:00:00,,,1.48,,,,,290.1,1.32,58.66,node1
2013-09-16 06:00:01,255.4,7.68,,36.19,7.82,,35.03,,,,node1
2013-09-16 07:00:00,,,,,,,,289.8,1.29,58.64,node1
2013-09-16 07:00:01,255.68,7.61,1.42,36.11,7.74,,35.02,,,,node1
2013-09-16 08:00:00,,,,,,,,289.7,1.31,58.67,node1
2013-09-16 08:00:01,255.89,7.65,1.41,36.15,7.77,,35.03,,,,node1
2013-09-16 09:00:00,,,,,,,,290.1,1.33,58.67,node1
2013-09-16 09:00:01,255.94,7.66,1.36,36.16,7.78,,35.03,,,,node1
2013-09-16 10:00:00,,,,,,,,289.6,1.33,58.66,node1
2013-09-16 10:00:01,255.85,7.62,1.4,36.1,7.75,,35.0,,,,node1
2013-09-16 11:00:00,,,,,,,,290.1,1.32,58.68,node1
2013-09-16 11:00:01,255.61,7.65,1.85,36.08,7.76,,34.97,,,,node1
2013-09-16 12:00:00,,,1.78,,,,,289.6,1.32,58.67,node1
2013-09-16 12:00:01,255.32,7.66,,36.08,7.77,,34.96,,,,node1
2013-09-16 13:00:00,,,0.0,,,,,290.2,1.32,58.64,node1
2013-09-16 13:00:01,,,,36.11,7.78,,34.98,,,,node1
2013-09-16 13:00:02,255.02,7.66,,,,,,,,,node1
2013-09-16 14:00:00,,,0.0,,,,,289.6,1.32,58.67,node1
2013-09-16 14:00:01,,,,35.93,7.67,,34.89,,,,node1
2013-09-16 14:00:02,254.78,7.56,,,,,,,,,node1
2013-09-16 15:00:00,,,0.0,,,,,290.0,1.32,58.65,node1
2013-09-16 15:00:01,,,,35.85,7.64,,34.84,,,,node1
2013-09-16 15:00:02,254.69,7.53,,,,,,,,,node1
2013-09-16 16:00:00,,,1.72,35.99,7.75,,34.88,289.6,1.3,58.65,node1
2013-09-16 16:00:02,254.76,7.63,,,,,,,,,node1
2013-09-16 17:00:00,254.97,7.63,,,,,,290.1,1.29,58.69,node1
2013-09-16 17:00:01,,,1.72,35.96,7.73,,34.87,,,,node1
2013-09-16 18:00:00,255.3,7.61,,35.94,7.72,,34.86,289.6,1.33,58.68,node1
2013-09-16 18:00:01,,,0.0,,,,,,,,node1
2013-09-16 19:00:00,255.65,7.68,,36.03,7.81,,34.86,290.1,1.3,58.66,node1
2013-09-16 19:00:01,,,0.0,,,,,,,,node1
2013-09-16 20:00:00,255.91,7.7,,36.1,7.82,,34.93,289.7,1.31,58.69,node1
2013-09-16 20:00:01,,,1.84,,,,,,,,node1
2013-09-16 21:00:00,,,,36.1,7.85,,34.9,290.1,1.31,58.68,node1
2013-09-16 21:00:01,256.05,7.7,0.0,,,,,,,,node1
2013-09-16 22:00:00,,,,36.11,7.84,,34.92,289.8,1.31,58.67,node1
2013-09-16 22:00:01,256.02,7.69,1.89,,,,,,,,node1
2013-09-16 23:00:00,,,1.74,36.05,7.82,,34.87,290.2,1.31,58.66,node1
2013-09-16 23:00:01,255.82,7.67,,,,,,,,,node1
2013-09-17 00:00:00,,,1.66,36.05,7.81,,34.88,289.8,1.3,58.7,node1
2013-09-17 00:00:01,255.49,7.65,,,,,,,,,node1
2013-09-17 01:00:00,,,1.77,36.07,7.79,,34.93,289.8,1.31,58.67,node1
2013-09-17 01:00:01,255.12,7.66,,,,,,,,,node1
2013-09-17 02:00:00,,,1.57,36.07,7.79,,34.93,290.1,1.32,58.64,node1
2013-09-17 02:00:01,254.78,7.66,,,,,,,,,node1
2013-09-17 03:00:00,,,1.89,36.15,7.84,,34.96,289.7,1.33,58.67,node1
2013-09-17 03:00:01,254.55,7.7,,,,,,,,,node1
2013-09-17 04:00:00,,,,36.16,7.83,,34.98,290.1,1.31,58.68,node1
2013-09-17 04:00:01,254.49,7.72,1.94,,,,,,,,node1
2013-09-17 05:00:00,,,,36.18,7.87,,34.96,289.7,1.28,58.7,node1
2013-09-17 05:00:01,,,1.74,,,,,,,,node1
2013-09-17 05:00:02,254.62,7.74,,,,,,,,,node1
2013-09-17 06:00:00,,,,36.2,7.87,,34.99,290.2,1.3,58.68,node1
2013-09-17 06:00:01,,,1.8,,,,,,,,node1
2013-09-17 06:00:02,254.9,7.75,,,,,,,,,node1
2013-09-17 07:00:00,,,,36.2,7.89,,34.97,289.8,1.3,58.69,node1
2013-09-17 07:00:01,,,1.63,,,,,,,,node1
2013-09-17 07:00:02,255.28,7.75,,,,,,,,,node1
2013-09-17 08:00:00,,,,,,,,290.3,1.3,58.67,node1
2013-09-17 08:00:01,,,1.97,36.18,7.87,,34.96,,,,node1
2013-09-17 08:00:02,255.63,7.74,,,,,,,,,node1
2013-09-17 09:00:00,255.88,7.73,0.0,36.18,7.9,,34.93,289.8,1.3,58.71,node1
2013-09-17 10:00:00,255.98,7.71,0.0,36.18,7.87,,34.96,290.2,1.31,58.7,node1
2013-09-17 11:00:00,255.88,7.72,0.0,36.19,7.89,,34.96,289.8,1.31,58.7,node1
2013-09-17 12:00:00,255.63,7.72,0.0,36.18,7.86,,34.97,290.3,1.3,58.68,node1
2013-09-17 13:00:00,,,0.0,36.15,7.86,,34.94,289.8,1.3,58.69,node1
2013-09-17 13:00:01,255.3,7.7,,,,,,,,,node1
2013-09-17 14:00:00,,,,36.18,7.91,,34.92,290.3,1.31,58.69,node1
2013-09-17 14:00:01,254.94,7.72,2.57,,,,,,,,node1
2013-09-17 15:00:00,,,,36.12,7.87,,34.9,289.8,1.31,58.7,node1
2013-09-17 15:00:01,254.69,7.71,1.75,,,,,,,,node1
2013-09-17 16:00:00,,,,36.15,7.87,,34.93,290.2,1.31,58.69,node1
2013-09-17 16:00:01,254.58,7.7,0.0,,,,,,,,node1
2013-09-17 17:00:00,,,,36.05,7.8,,34.89,290.2,1.29,58.64,node1
2013-09-17 17:00:01,254.69,7.66,2.12,,,,,,,,node1
2013-09-17 18:00:00,,,,36.09,7.82,,34.92,289.8,1.3,58.7,node1
2013-09-17 18:00:01,254.95,7.66,1.69,,,,,,,,node1
2013-09-17 19:00:00,,,,36.08,7.81,,34.92,290.2,1.3,58.69,node1
2013-09-17 19:00:01,255.34,7.67,1.83,,,,,,,,node1
2013-09-17 20:00:00,,,1.63,36.09,7.8,,34.94,289.8,1.3,58.72,node1
2013-09-17 20:00:01,255.77,7.67,,,,,,,,,node1
2013-09-17 21:00:00,,,1.75,36.08,7.82,,34.91,290.1,1.33,58.71,node1
2013-09-17 21:00:02,256.07,7.67,,,,,,,,,node1
2013-09-17 22:00:00,,,1.85,36.09,7.83,,34.91,289.7,1.28,58.71,node1
2013-09-17 22:00:02,256.21,7.67,,,,,,,,,node1
2013-09-17 23:00:00,,,1.64,36.08,7.81,,34.92,290.1,1.32,58.7,node1
2013-09-17 23:00:02,256.13,7.66,,,,,,,,,node1
2013-09-18 00:00:00,,,4.06,36.12,7.82,,34.95,289.7,1.3,58.69,node1
2013-09-18 00:00:02,255.87,7.67,,,,,,,,,node1
2013-09-18 01:00:00,255.46,7.66,,36.09,7.82,,34.92,290.2,1.31,58.69,node1
2013-09-18 01:00:01,,,1.76,,,,,,,,node1
2013-09-18 02:00:00,255.02,7.68,,36.11,7.8,,34.96,289.7,1.3,58.73,node1
2013-09-18 02:00:01,,,1.51,,,,,,,,node1
2013-09-18 03:00:00,254.64,7.69,,36.14,7.83,,34.96,290.1,1.29,58.69,node1
2013-09-18 03:00:01,,,2.29,,,,,,,,node1
2013-09-18 04:00:00,254.41,7.7,,36.14,7.84,,34.95,289.8,1.31,58.71,node1
2013-09-18 04:00:01,,,1.68,,,,,,,,node1
2013-09-18 05:00:00,,,,36.16,7.88,,34.93,290.3,1.32,58.68,node1
2013-09-18 05:00:01,254.38,7.73,1.72,,,,,,,,node1
2013-09-18 06:00:00,,,0.0,36.18,7.88,,34.95,289.8,1.3,58.7,node1
2013-09-18 06:00:01,254.57,7.75,,,,,,,,,node1
2013-09-18 07:00:00,,,0.0,36.19,7.9,,34.95,290.2,1.31,58.72,node1
2013-09-18 07:00:01,254.94,7.76,,,,,,,,,node1
2013-09-18 08:00:00,,,1.78,,,,,289.8,1.32,58.71,node1
2013-09-18 08:00:01,255.38,7.72,,,,,,,,,node1
2013-09-18 08:00:02,,,,36.13,7.84,,34.94,,,,node1
2013-09-18 09:00:00,,,1.57,,,,,290.1,1.31,58.72,node1
2013-09-18 09:00:01,255.77,7.7,,,,,,,,,node1
2013-09-18 09:00:02,,,,36.1,7.85,,34.9,,,,node1
2013-09-18 10:00:00,,,0.0,,,,,290.0,1.3,58.71,node1
2013-09-18 10:00:01,256.04,7.66,,,,,,,,,node1
2013-09-18 10:00:02,,,,36.04,7.81,,34.87,,,,node1
2013-09-18 11:00:00,,,1.46,,,,,289.8,1.29,58.72,node1
2013-09-18 11:00:01,256.09,7.64,,,,,,,,,node1
2013-09-18 11:00:02,,,,36.0,7.77,,34.87,,,,node1
2013-09-18 12:00:00,,,,,,,,290.1,1.3,58.71,node1
2013-09-18 12:00:01,255.94,7.61,0.0,,,,,,,,node1
2013-09-18 12:00:02,,,,35.96,7.74,,34.86,,,,node1
2013-09-18 13:00:00,,,,,,,,289.7,1.32,58.7,node1
2013-09-18 13:00:01,,,0.0,,,,,,,,node1
2013-09-18 13:00:02,255.61,7.57,,35.91,7.73,,34.81,,,,node1
2013-09-18 14:00:00,,,,,,,,290.1,1.3,58.67,node1
2013-09-18 14:00:01,,,1.31,,,,,,,,node1
2013-09-18 14:00:02,255.21,7.58,,35.92,7.73,,34.82,,,,node1
2013-09-18 15:00:00,,,,,,,,289.7,1.28,58.71,node1
2013-09-18 15:00:01,,,0.0,,,,,,,,node1
2013-09-18 15:00:02,254.82,7.53,,35.86,7.73,,34.76,,,,node1
2013-09-18 16:00:00,,,,,,,,290.1,1.25,58.71,node1
2013-09-18 16:00:01,,,0.0,,,,,,,,node1
2013-09-18 16:00:02,254.54,7.64,,36.01,7.8,,34.85,,,,node1
2013-09-18 17:00:00,254.48,7.68,1.49,,,,,289.7,1.27,58.72,node1
2013-09-18 17:00:02,,,,36.09,7.81,,34.93,,,,node1
2013-09-18 18:00:00,254.65,7.68,1.85,,,,,290.2,1.3,58.67,node1
2013-09-18 18:00:02,,,,36.1,7.82,,34.93,,,,node1
2013-09-18 19:00:00,255.01,7.67,1.48,,,,,289.8,1.3,58.71,node1
2013-09-18 19:00:02,,,,36.09,7.81,,34.93,,,,node1
2013-09-18 20:00:00,255.46,7.68,1.76,,,,,290.2,1.3,58.71,node1
2013-09-18 20:00:02,,,,36.1,7.82,,34.93,,,,node1
2013-09-18 21:00:00,,,,,,,,289.7,1.3,58.73,node1
2013-09-18 21:00:01,255.92,7.68,1.58,,,,,,,,node1
2013-09-18 21:00:02,,,,36.09,7.81,,34.93,,,,node1
2013-09-18 22:00:00,,,,36.09,7.82,,34.92,290.2,1.31,58.68,node1
2013-09-18 22:00:01,256.24,7.68,1.73,,,,,,,,node1
2013-09-18 23:00:00,,,,,,,,289.6,1.29,58.7,node1
2013-09-18 23:00:01,256.34,7.72,1.68,,,,,,,,node1
2013-09-18 23:00:02,,,,36.16,7.85,,34.96,,,,node1
2013-09-19 00:00:00,,,,,,,,290.1,1.26,58.72,node1
2013-09-19 00:00:01,256.21,7.72,1.81,,,,,,,,node1
2013-09-19 00:00:02,,,,36.15,7.86,,34.94,,,,node1
2013-09-19 01:00:00,,,,,,,,289.7,1.28,58.71,node1
2013-09-19 01:00:01,255.87,7.72,1.73,,,,,,,,node1
2013-09-19 01:00:02,,,,36.17,7.86,,34.96,,,,node1
2013-09-19 02:00:00,,,,,,,,290.2,1.27,58.68,node1
2013-09-19 02:00:01,255.4,7.73,1.45,,,,,,,,node1
2013-09-19 02:00:02,,,,36.15,7.88,,34.92,,,,node1
2013-09-19 03:00:00,,,1.63,,,,,290.1,1.3,58.69,node1
2013-09-19 03:00:01,254.91,7.73,,,,,,,,,node1
2013-09-19 03:00:02,,,,36.16,7.92,,34.89,,,,node1
2013-09-19 04:00:00,,,1.97,,,,,289.9,1.28,58.68,node1
2013-09-19 04:00:01,254.52,7.73,,,,,,,,,node1
2013-09-19 04:00:02,,,,36.19,7.94,,34.91,,,,node1
2013-09-19 05:00:00,,,1.91,,,,,290.3,1.29,58.7,node1
2013-09-19 05:00:01,254.31,7.74,,,,,,,,,node1
2013-09-19 05:00:02,,,,35.9,7.93,,34.6,,,,node1
2013-09-19 06:00:00,,,1.74,,,,,289.9,1.29,58.71,node1
2013-09-19 06:00:02,254.36,7.72,,36.16,7.86,,34.95,,,,node1
2013-09-19 07:00:00,,,1.66,,,,,290.3,1.29,58.71,node1
2013-09-19 07:00:02,254.63,7.73,,36.17,7.92,,34.9,,,,node1
2013-09-19 08:00:00,,,1.57,,,,,290.0,1.28,58.71,node1
2013-09-19 08:00:02,255.06,7.69,,36.09,7.87,,34.87,,,,node1
2013-09-19 09:00:00,,,,,,,,290.4,1.28,58.69,node1
2013-09-19 09:00:01,,,2.87,,,,,,,,node1
2013-09-19 09:00:02,255.54,7.71,,36.13,7.86,,34.92,,,,node1
2013-09-19 10:00:00,255.95,7.7,,,,,,289.9,1.27,58.71,node1
2013-09-19 10:00:01,,,1.57,,,,,,,,node1
2013-09-19 10:00:02,,,,36.12,7.84,,34.93,,,,node1
2013-09-19 11:00:00,256.17,7.72,,,,,,290.4,1.27,58.67,node1
2013-09-19 11:00:01,,,1.6,,,,,,,,node1
2013-09-19 11:00:02,,,,36.16,7.85,,34.96,,,,node1
2013-09-19 12:00:00,256.17,7.71,,,,,,289.9,1.31,58.71,node1
2013-09-19 12:00:01,,,0.0,,,,,,,,node1
2013-09-19 12:00:02,,,,36.15,7.84,,34.96,,,,node1
2013-09-19 13:00:00,255.94,7.67,,,,,,290.3,1.28,58.69,node1
2013-09-19 13:00:01,,,1.54,,,,,,,,node1
2013-09-19 13:00:02,,,,36.1,7.81,,34.94,,,,node1
2013-09-19 14:00:00,,,2.36,,,,,289.9,1.27,58.7,node1
2013-09-19 14:00:01,255.54,7.67,,,,,,,,,node1
2013-09-19 14:00:02,,,,36.09,7.81,,34.93,,,,node1
2013-09-19 15:00:00,,,1.52,,,,,290.3,1.27,58.68,node1
2013-09-19 15:00:01,255.1,7.67,,,,,,,,,node1
2013-09-19 15:00:02,,,,36.08,7.81,,34.92,,,,node1
2013-09-19 16:00:00,,,1.58,,,,,289.8,1.28,58.69,node1
2013-09-19 16:00:01,254.7,7.67,,,,,,,,,node1
2013-09-19 16:00:02,,,,36.08,7.8,,34.93,,,,node1
2013-09-19 17:00:00,,,1.71,,,,,290.3,1.28,58.69,node1
2013-09-19 17:00:01,254.47,7.66,,,,,,,,,node1
2013-09-19 17:00:02,,,,36.06,7.81,,34.9,,,,node1
2013-09-19 18:00:00,,,1.54,,,,,290.1,1.28,58.69,node1
2013-09-19 18:00:01,254.47,7.67,,,,,,,,,node1
2013-09-19 18:00:02,,,,36.07,7.82,,34.9,,,,node1
2013-09-19 19:00:00,,,1.56,,,,,289.9,1.29,58.69,node1
2013-09-19 19:00:01,254.7,7.66,,,,,,,,,node1
2013-09-19 19:00:02,,,,36.06,7.83,,34.88,,,,node1
2013-09-19 20:00:00,,,,,,,,290.3,1.29,58.68,node1
2013-09-19 20:00:01,255.12,7.67,2.13,,,,,,,,node1
2013-09-19 20:00:02,,,,36.09,7.84,,34.9,,,,node1
2013-09-19 21:00:00,,,,,,,,289.8,1.29,58.72,node1
2013-09-19 21:00:01,255.63,7.67,1.8,,,,,,,,node1
2013-09-19 21:00:02,,,,36.08,7.82,,34.91,,,,node1
2013-09-19 22:00:00,,,,,,,,290.2,1.29,58.67,node1
2013-09-19 22:00:01,,,1.55,,,,,,,,node1
2013-09-19 22:00:02,256.07,7.65,,36.03,7.84,,34.83,,,,node1
2013-09-19 23:00:00,,,,,,,,289.8,1.27,58.71,node1
2013-09-19 23:00:01,,,1.38,,,,,,,,node1
2013-09-19 23:00:02,256.34,7.62,,35.99,7.8,,34.83,,,,node1
2013-09-20 00:00:00,,,,,,,,290.2,1.26,58.66,node1
2013-09-20 00:00:01,,,1.95,,,,,,,,node1
2013-09-20 00:00:02,256.38,7.63,,35.87,7.79,,34.71,,,,node1
2013-09-20 01:00:00,,,0.0,,,,,289.8,1.26,58.7,node1
2013-09-20 01:00:02,256.17,7.6,,35.85,7.75,,34.73,,,,node1
2013-09-20 02:00:00,255.74,7.63,0.0,,,,,290.1,1.31,58.67,node1
2013-09-20 02:00:01,,,,35.99,7.78,,34.85,,,,node1
2013-09-20 03:00:00,255.22,7.66,0.0,,,,,289.8,1.27,58.71,node1
2013-09-20 03:00:01,,,,36.04,7.83,,34.85,,,,node1
2013-09-20 04:00:00,254.73,7.67,1.57,,,,,290.2,1.28,58.67,node1
2013-09-20 04:00:01,,,,36.07,7.84,,34.88,,,,node1
2013-09-20 05:00:00,254.37,7.67,0.0,,,,,289.8,1.28,58.71,node1
2013-09-20 05:00:01,,,,36.04,7.82,,34.86,,,,node1
2013-09-20 06:00:00,,,0.0,,,,,290.3,1.28,58.68,node1
2013-09-20 06:00:01,254.23,7.67,,35.99,7.84,,34.79,,,,node1
2013-09-20 07:00:00,,,,,,,,289.8,1.27,58.7,node1
2013-09-20 07:00:01,254.35,7.67,1.61,35.99,7.86,,34.77,,,,node1
2013-09-20 08:00:00,,,,,,,,290.3,1.27,58.68,node1
2013-09-20 08:00:01,254.7,7.68,0.0,35.93,7.86,,34.71,,,,node1
2013-09-20 09:00:00,,,,,,,,289.9,1.29,58.7,node1
2013-09-20 09:00:01,255.17,7.69,1.6,35.71,7.85,,34.48,,,,node1
2013-09-20 10:00:00,,,1.63,,,,,290.2,1.29,58.68,node1
2013-09-20 10:00:01,255.66,7.7,,35.66,7.87,,34.41,,,,node1
2013-09-20 11:00:00,,,1.52,,,,,290.0,1.29,58.71,node1
2013-09-20 11:00:01,256.04,7.71,,35.56,7.95,,34.22,,,,node1
2013-09-20 12:00:00,,,1.73,,,,,289.9,1.28,58.7,node1
2013-09-20 12:00:01,256.19,7.67,,,,,,,,,node1
2013-09-20 12:00:02,,,,35.46,7.88,,34.18,,,,node1
2013-09-20 13:00:00,,,1.55,,,,,290.2,1.28,58.69,node1
2013-09-20 13:00:02,256.11,7.66,,35.84,7.82,,34.65,,,,node1
2013-09-20 14:00:00,,,1.84,,,,,289.8,1.27,58.69,node1
2013-09-20 14:00:01,,,,36.03,7.85,,34.82,,,,node1
2013-09-20 14:00:02,255.81,7.67,,,,,,,,,node1
2013-09-20 15:00:00,,,,,,,,290.2,1.29,58.66,node1
2013-09-20 15:00:01,,,1.75,35.81,7.83,,34.61,,,,node1
2013-09-20 15:00:02,255.36,7.67,,,,,,,,,node1
2013-09-20 16:00:00,,,,,,,,289.8,1.26,58.7,node1
2013-09-20 16:00:01,,,1.59,35.88,7.83,,34.68,,,,node1
2013-09-20 16:00:02,254.9,7.67,,,,,,,,,node1
2013-09-20 17:00:00,,,,,,,,290.2,1.28,58.68,node1
2013-09-20 17:00:01,,,1.39,35.88,7.84,,34.67,,,,node1
2013-09-20 17:00:02,254.54,7.67,,,,,,,,,node1
2013-09-20 18:00:00,254.37,7.67,,,,,,289.7,1.27,58.71,node1
2013-09-20 18:00:01,,,1.61,36.0,7.84,,34.8,,,,node1
2013-09-20 19:00:00,254.46,7.66,2.73,,,,,290.1,1.28,58.69,node1
2013-09-20 19:00:01,,,,35.94,7.84,,34.74,,,,node1
2013-09-20 20:00:00,254.77,7.67,1.58,,,,,289.7,1.27,58.71,node1
2013-09-20 20:00:01,,,,35.91,7.83,,34.71,,,,node1
2013-09-20 21:00:00,,,,,,,,290.2,1.27,58.68,node1
2013-09-20 21:00:01,255.25,7.67,0.0,35.93,7.84,,34.73,,,,node1
2013-09-20 22:00:00,,,0.0,,,,,289.7,1.29,58.69,node1
2013-09-20 22:00:01,255.75,7.67,,36.07,7.85,,34.87,,,,node1
2013-09-20 23:00:00,,,,,,,,290.2,1.28,58.69,node1
2013-09-20 23:00:01,256.15,7.68,0.0,36.09,7.83,,34.91,,,,node1
2013-09-21 00:00:00,,,,,,,,289.7,1.29,58.71,node1
2013-09-21 00:00:01,256.38,7.69,0.0,36.13,7.85,,34.93,,,,node1
2013-09-21 01:00:00,,,,,,,,290.2,1.27,58.69,node1
2013-09-21 01:00:01,256.34,7.69,1.58,35.82,7.83,,34.62,,,,node1
2013-09-21 02:00:00,,,,,,,,289.8,1.27,58.71,node1
2013-09-21 02:00:01,256.06,7.68,1.31,36.11,7.82,,34.94,,,,node1
2013-09-21 03:00:00,,,1.48,,,,,290.3,1.29,58.69,node1
2013-09-21 03:00:01,255.6,7.68,,36.09,7.85,,34.89,,,,node1
2013-09-21 04:00:00,,,1.44,,,,,290.1,1.28,58.67,node1
2013-09-21 04:00:01,255.08,7.68,,36.11,7.84,,34.92,,,,node1
2013-09-21 05:00:00,,,1.46,,,,,290.3,1.26,58.69,node1
2013-09-21 05:00:01,254.63,7.68,,36.12,7.82,,34.95,,,,node1
2013-09-21 06:00:00,,,1.57,,,,,290.1,1.25,58.7,node1
2013-09-21 06:00:01,,,,36.18,7.83,,35.0,,,,node1
2013-09-21 06:00:02,254.35,7.7,,,,,,,,,node1
2013-09-21 07:00:00,,,,,,,,289.9,1.25,58.71,node1
2013-09-21 07:00:01,,,1.43,36.2,7.85,,35.01,,,,node1
2013-09-21 07:00:02,254.31,7.71,,,,,,,,,node1
2013-09-21 08:00:00,,,,,,,,290.2,1.26,58.69,node1
2013-09-21 08:00:01,,,1.41,36.2,7.85,,35.01,,,,node1
2013-09-21 08:00:02,254.51,7.72,,,,,,,,,node1
2013-09-21 09:00:00,,,,,,,,289.9,1.26,58.69,node1
2013-09-21 09:00:01,,,1.47,36.2,7.93,,34.93,,,,node1
2013-09-21 09:00:02,254.91,7.73,,,,,,,,,node1
2013-09-21 10:00:00,255.4,7.72,1.44,,,,,290.3,1.26,58.65,node1
2013-09-21 10:00:01,,,,36.18,7.87,,34.96,,,,node1
2013-09-21 11:00:00,255.85,7.72,1.58,,,,,289.9,1.25,58.69,node1
2013-09-21 11:00:01,,,,36.18,7.86,,34.97,,,,node1
2013-09-21 12:00:00,256.15,7.72,1.45,,,,,290.3,1.28,58.66,node1
2013-09-21 12:00:01,,,,36.17,7.85,,34.97,,,,node1
2013-09-21 13:00:00,256.22,7.71,2.07,,,,,289.8,1.27,58.69,node1
2013-09-21 13:00:01,,,,36.13,7.86,,34.92,,,,node1
2013-09-21 14:00:00,,,1.69,,,,,290.3,1.26,58.67,node1
2013-09-21 14:00:01,256.05,7.71,,35.94,7.87,,34.71,,,,node1
2013-09-21 15:00:00,,,,,,,,289.8,1.26,58.7,node1
2013-09-21 15:00:01,255.68,7.7,1.62,35.88,7.87,,34.64,,,,node1
2013-09-21 16:00:00,,,1.75,,,,,290.3,1.27,58.66,node1
2013-09-21 16:00:01,255.22,7.73,,35.99,7.97,,34.66,,,,node1
2013-09-21 17:00:00,,,1.41,,,,,289.9,1.26,58.68,node1
2013-09-21 17:00:01,254.79,7.71,,35.89,7.93,,34.59,,,,node1
2013-09-21 18:00:00,,,1.62,,,,,290.3,1.26,58.66,node1
2013-09-21 18:00:01,254.49,7.66,,35.86,7.84,,34.65,,,,node1
2013-09-21 19:00:00,,,,,,,,289.8,1.27,58.68,node1
2013-09-21 19:00:01,254.41,7.69,1.96,36.12,7.85,,34.92,,,,node1
2013-09-21 20:00:00,,,,,,,,290.2,1.27,58.65,node1
2013-09-21 20:00:01,254.57,7.69,1.51,36.13,7.85,,34.93,,,,node1
2013-09-21 21:00:00,,,,,,,,289.7,1.25,58.7,node1
2013-09-21 21:00:01,254.94,7.7,1.57,36.15,7.84,,34.96,,,,node1
2013-09-21 22:00:00,,,,,,,,290.1,1.26,58.69,node1
2013-09-21 22:00:01,,,0.0,36.15,7.84,,34.96,,,,node1
2013-09-21 22:00:02,255.42,7.7,,,,,,,,,node1
2013-09-21 23:00:00,,,,,,,,290.1,1.26,58.66,node1
2013-09-21 23:00:01,,,1.36,36.15,7.83,,34.97,,,,node1
2013-09-21 23:00:02,255.89,7.7,,,,,,,,,node1
2013-09-22 00:00:00,,,,,,,,289.8,1.27,58.7,node1
2013-09-22 00:00:01,,,1.47,36.18,7.86,,34.97,,,,node1
2013-09-22 00:00:02,256.22,7.71,,,,,,,,,node1
2013-09-22 01:00:00,,,1.41,,,,,290.2,1.26,58.69,node1
2013-09-22 01:00:01,,,,36.15,7.9,,34.9,,,,node1
2013-09-22 01:00:02,256.35,7.7,,,,,,,,,node1
2013-09-22 02:00:00,256.21,7.7,1.43,,,,,289.8,1.26,58.69,node1
2013-09-22 02:00:01,,,,36.17,7.83,,34.99,,,,node1
2013-09-22 03:00:00,255.87,7.7,1.44,,,,,290.2,1.26,58.65,node1
2013-09-22 03:00:01,,,,36.18,7.84,,34.99,,,,node1
2013-09-22 04:00:00,255.39,7.7,2.06,,,,,289.8,1.26,58.7,node1
2013-09-22 04:00:01,,,,36.21,7.83,,35.04,,,,node1
2013-09-22 05:00:00,254.91,7.71,1.39,,,,,290.3,1.27,58.65,node1
2013-09-22 05:00:01,,,,36.22,7.84,,35.04,,,,node1
2013-09-22 06:00:00,,,1.32,,,,,289.8,1.25,58.7,node1
2013-09-22 06:00:01,254.53,7.71,,36.2,7.87,,34.99,,,,node1
2013-09-22 07:00:00,,,,,,,,290.2,1.24,58.69,node1
2013-09-22 07:00:01,254.33,7.71,1.39,36.19,7.84,,35.01,,,,node1
2013-09-22 08:00:00,,,,,,,,289.8,1.26,58.7,node1
2013-09-22 08:00:01,254.39,7.71,1.3,36.21,7.84,,35.03,,,,node1
2013-09-22 09:00:00,,,,,,,,290.3,1.28,58.66,node1
2013-09-22 09:00:01,254.66,7.69,1.52,36.13,7.83,,34.95,,,,node1
2013-09-22 10:00:00,,,,,,,,289.7,1.29,58.69,node1
2013-09-22 10:00:01,255.07,7.67,1.35,36.09,7.84,,34.9,,,,node1
2013-09-22 11:00:00,,,1.54,,,,,290.2,1.26,58.68,node1
2013-09-22 11:00:01,255.53,7.63,,36.01,7.78,,34.87,,,,node1
2013-09-22 12:00:00,,,0.0,,,,,289.7,1.27,58.69,node1
2013-09-22 12:00:01,255.92,7.61,,35.96,7.76,,34.84,,,,node1
2013-09-22 13:00:00,,,1.3,,,,,290.0,1.29,58.67,node1
2013-09-22 13:00:01,256.11,7.58,,35.92,7.73,,34.82,,,,node1
2013-09-22 14:00:00,,,1.26,,,,,289.7,1.26,58.69,node1
2013-09-22 14:00:01,,,,35.86,7.69,,34.8,,,,node1
2013-09-22 14:00:02,256.09,7.55,,,,,,,,,node1
2013-09-22 15:00:00,,,0.0,,,,,289.8,1.26,58.64,node1
2013-09-22 15:00:01,,,,35.79,7.67,,34.74,,,,node1
2013-09-22 15:00:02,255.86,7.52,,,,,,,,,node1
2013-09-22 16:00:00,,,0.0,,,,,290.0,1.25,58.66,node1
2013-09-22 16:00:01,,,,35.85,7.68,,34.8,,,,node1
2013-09-22 16:00:02,255.46,7.55,,,,,,,,,node1
2013-09-22 17:00:00,,,,,,,,289.6,1.27,58.68,node1
2013-09-22 17:00:01,,,0.0,35.93,7.72,,34.84,,,,node1
2013-09-22 17:00:02,255.04,7.59,,,,,,,,,node1
2013-09-22 18:00:00,,,,,,,,290.0,1.24,58.69,node1
2013-09-22 18:00:01,,,0.0,35.95,7.73,,34.86,,,,node1
2013-09-22 18:00:02,254.67,7.6,,,,,,,,,node1
2013-09-22 19:00:00,254.47,7.65,,,,,,289.6,1.24,58.68,node1
2013-09-22 19:00:01,,,1.59,36.06,7.79,,34.92,,,,node1
2013-09-22 20:00:00,254.48,7.67,,,,,,290.1,1.25,58.69,node1
2013-09-22 20:00:01,,,1.46,36.1,7.81,,34.94,,,,node1
2013-09-22 21:00:00,254.73,7.69,,,,,,289.6,1.25,58.69,node1
2013-09-22 21:00:01,,,0.0,36.11,7.82,,34.94,,,,node1
2013-09-22 22:00:00,255.11,7.68,1.55,,,,,290.1,1.28,58.67,node1
2013-09-22 22:00:01,,,,36.1,7.84,,34.91,,,,node1
2013-09-22 23:00:00,,,1.62,,,,,289.7,1.27,58.69,node1
2013-09-22 23:00:01,255.57,7.66,,36.07,7.81,,34.91,,,,node1
2013-09-23 00:00:00,,,1.46,,,,,290.1,1.26,58.66,node1
2013-09-23 00:00:01,255.96,7.64,,36.02,7.79,,34.87,,,,node1
2013-09-23 01:00:00,,,1.36,,,,,289.7,1.23,58.7,node1
2013-09-23 01:00:01,256.21,7.68,,36.12,7.85,,34.92,,,,node1
2013-09-23 02:00:00,,,1.44,,,,,290.2,1.26,58.69,node1
2013-09-23 02:00:01,256.23,7.69,,36.12,7.83,,34.94,,,,node1
2013-09-23 03:00:00,,,1.35,,,,,289.7,1.27,58.7,node1
2013-09-23 03:00:01,256.04,7.71,,36.16,7.87,,34.94,,,,node1
2013-09-23 04:00:00,,,,,,,,290.2,1.27,58.64,node1
2013-09-23 04:00:01,255.68,7.71,1.28,36.16,7.91,,34.9,,,,node1
2013-09-23 05:00:00,,,,,,,,289.8,1.24,58.71,node1
2013-09-23 05:00:01,255.25,7.69,1.35,36.08,7.85,,34.88,,,,node1
2013-09-23 06:00:00,,,,,,,,290.3,1.27,58.64,node1
2013-09-23 06:00:01,254.84,7.69,1.67,36.1,7.83,,34.92,,,,node1
2013-09-23 07:00:00,,,,,,,,289.9,1.26,58.7,node1
2013-09-23 07:00:01,,,1.39,36.07,7.88,,34.84,,,,node1
2013-09-23 07:00:02,254.55,7.71,,,,,,,,,node1
2013-09-23 08:00:00,,,,,,,,290.0,1.26,58.67,node1
2013-09-23 08:00:01,,,1.31,36.13,7.83,,34.95,,,,node1
2013-09-23 08:00:02,254.47,7.69,,,,,,,,,node1
2013-09-23 09:00:00,,,0.0,,,,,289.8,1.27,58.68,node1
2013-09-23 09:00:01,,,,36.05,7.84,,34.85,,,,node1
2013-09-23 09:00:02,254.61,7.7,,,,,,,,,node1
2013-09-23 10:00:00,,,0.0,,,,,289.9,1.27,58.67,node1
2013-09-23 10:00:01,,,,36.11,7.84,,34.92,,,,node1
2013-09-23 10:00:02,254.91,7.7,,,,,,,,,node1
2013-09-23 11:00:00,255.32,7.69,0.0,,,,,290.2,1.25,58.68,node1
2013-09-23 11:00:01,,,,36.04,7.84,,34.84,,,,node1
2013-09-23 12:00:00,255.71,7.69,0.0,,,,,289.7,1.27,58.68,node1
2013-09-23 12:00:01,,,,36.15,7.84,,34.96,,,,node1
2013-09-23 13:00:00,256.01,7.69,0.0,,,,,290.2,1.26,58.67,node1
2013-09-23 13:00:01,,,,36.16,7.86,,34.95,,,,node1
2013-09-23 14:00:00,256.11,7.69,,,,,,289.7,1.27,58.71,node1
2013-09-23 14:00:01,,,0.0,36.06,7.85,,34.86,,,,node1
2013-09-23 15:00:00,,,,36.16,7.84,,34.97,290.1,1.26,58.65,node1
2013-09-23 15:00:01,256.01,7.69,0.0,,,,,,,,node1
2013-09-23 16:00:00,,,,36.16,7.82,,34.99,289.8,1.24,58.67,node1
2013-09-23 16:00:01,255.74,7.69,1.41,,,,,,,,node1
2013-09-23 17:00:00,,,,,,,,290.1,1.25,58.66,node1
2013-09-23 17:00:01,255.36,7.7,1.57,36.18,7.85,,34.98,,,,node1
2013-09-23 18:00:00,,,,36.14,7.83,,34.96,289.7,1.27,58.68,node1
2013-09-23 18:00:01,254.98,7.68,0.0,,,,,,,,node1
2013-09-23 19:00:00,,,1.39,36.11,7.86,,34.9,290.2,1.25,58.65,node1
2013-09-23 19:00:01,254.69,7.68,,,,,,,,,node1
2013-09-23 20:00:00,,,1.33,36.08,7.84,,34.89,289.8,1.27,58.69,node1
2013-09-23 20:00:01,254.58,7.68,,,,,,,,,node1
2013-09-23 21:00:00,,,1.3,36.13,7.87,,34.91,290.2,1.27,58.65,node1
2013-09-23 21:00:01,254.64,7.69,,,,,,,,,node1
2013-09-23 22:00:00,,,1.32,36.14,7.87,,34.92,289.8,1.22,58.7,node1
2013-09-23 22:00:01,254.9,7.7,,,,,,,,,node1
2013-09-23 23:00:00,,,1.25,36.2,7.94,,34.92,290.2,1.25,58.67,node1
2013-09-23 23:00:02,255.26,7.72,,,,,,,,,node1
2013-09-24 00:00:00,,,,36.17,7.87,,34.95,289.7,1.26,58.69,node1
2013-09-24 00:00:01,,,1.26,,,,,,,,node1
2013-09-24 00:00:02,255.65,7.71,,,,,,,,,node1
2013-09-24 01:00:00,,,,36.18,7.91,,34.92,290.1,1.26,58.66,node1
2013-09-24 01:00:01,,,1.4,,,,,,,,node1
2013-09-24 01:00:02,255.95,7.71,,,,,,,,,node1
2013-09-24 02:00:00,,,,36.19,7.91,,34.94,290.0,1.28,58.69,node1
2013-09-24 02:00:01,,,1.38,,,,,,,,node1
2013-09-24 02:00:02,256.09,7.71,,,,,,,,,node1
2013-09-24 03:00:00,256.03,7.69,,36.2,7.87,,34.99,289.9,1.25,58.68,node1
2013-09-24 03:00:01,,,1.27,,,,,,,,node1
2013-09-24 04:00:00,255.8,7.69,,36.17,7.84,,34.98,290.1,1.26,58.65,node1
2013-09-24 04:00:01,,,1.45,,,,,,,,node1
2013-09-24 05:00:00,255.45,7.68,,36.17,7.82,,35.0,289.7,1.24,58.67,node1
2013-09-24 05:00:01,,,1.3,,,,,,,,node1
2013-09-24 06:00:00,255.07,7.68,0.0,36.16,7.82,,34.99,290.1,1.27,58.64,node1
2013-09-24 07:00:00,,,0.0,36.16,7.82,,34.99,289.6,1.24,58.67,node1
2013-09-24 07:00:01,254.76,7.69,,,,,,,,,node1
2013-09-24 08:00:00,,,0.0,36.08,7.84,,34.89,290.0,1.25,58.65,node1
2013-09-24 08:00:01,254.57,7.69,,,,,,,,,node1
2013-09-24 09:00:00,,,0.0,36.16,7.84,,34.97,289.7,1.25,58.68,node1
2013-09-24 09:00:01,254.58,7.69,,,,,,,,,node1
2013-09-24 10:00:00,,,,36.08,7.85,,34.88,290.1,1.25,58.65,node1
2013-09-24 10:00:01,254.76,7.7,2.33,,,,,,,,node1
2013-09-24 11:00:00,,,0.0,36.17,7.85,,34.97,289.7,1.23,58.69,node1
2013-09-24 11:00:01,255.07,7.7,,,,,,,,,node1
2013-09-24 12:00:00,,,,36.16,7.86,,34.95,290.1,1.25,58.65,node1
2013-09-24 12:00:01,255.43,7.71,0.0,,,,,,,,node1
2013-09-24 13:00:00,,,,36.18,7.92,,34.91,289.7,1.26,58.71,node1
2013-09-24 13:00:01,255.76,7.73,1.57,,,,,,,,node1
2013-09-24 14:00:00,,,,36.23,7.94,,34.95,290.2,1.22,58.67,node1
2013-09-24 14:00:01,255.94,7.74,1.41,,,,,,,,node1
2013-09-24 15:00:00,,,,36.19,7.94,,34.91,289.8,1.22,58.69,node1
2013-09-24 15:00:01,,,0.0,,,,,,,,node1
2013-09-24 15:00:02,255.97,7.74,,,,,,,,,node1
2013-09-24 16:00:00,,,,36.18,7.96,,34.87,290.2,1.26,58.64,node1
2013-09-24 16:00:01,,,1.48,,,,,,,,node1
2013-09-24 16:00:02,255.82,7.74,,,,,,,,,node1
2013-09-24 17:00:00,,,1.63,36.17,7.9,,34.92,289.8,1.23,58.67,node1
2013-09-24 17:00:02,255.55,7.72,,,,,,,,,node1
2013-09-24 18:00:00,,,1.48,36.17,7.9,,34.92,289.9,1.27,58.69,node1
2013-09-24 18:00:02,255.23,7.71,,,,,,,,,node1
2013-09-24 19:00:00,254.92,7.69,1.48,36.15,7.86,,34.94,290.0,1.25,58.67,node1
2013-09-24 20:00:00,254.71,7.7,1.85,36.14,7.87,,34.92,289.8,1.25,58.68,node1
2013-09-24 21:00:00,254.68,7.69,1.42,36.14,7.88,,34.91,290.1,1.24,58.65,node1
2013-09-24 22:00:00,254.8,7.69,,36.14,7.88,,34.91,289.8,1.23,58.69,node1
2013-09-24 22:00:01,,,1.57,,,,,,,,node1
2013-09-24 23:00:00,,,,36.15,7.84,,34.96,290.1,1.23,58.69,node1
2013-09-24 23:00:01,255.05,7.69,1.43,,,,,,,,node1
2013-09-25 00:00:00,,,,36.15,7.85,,34.95,289.7,1.23,58.68,node1
2013-09-25 00:00:01,255.37,7.7,1.51,,,,,,,,node1
2013-09-25 01:00:00,,,,36.21,7.93,,34.94,290.1,1.23,58.65,node1
2013-09-25 01:00:01,255.68,7.71,1.33,,,,,,,,node1
2013-09-25 02:00:00,,,,36.18,7.9,,34.93,289.7,1.23,58.68,node1
2013-09-25 02:00:01,255.9,7.7,1.37,,,,,,,,node1
2013-09-25 03:00:00,,,0.0,36.3,8.01,,34.95,290.1,1.23,58.65,node1
2013-09-25 03:00:01,255.97,7.73,,,,,,,,,node1
2013-09-25 04:00:00,,,1.65,36.17,7.89,,34.93,289.8,1.23,58.66,node1
2013-09-25 04:00:01,255.87,7.7,,,,,,,,,node1
2013-09-25 05:00:00,,,1.81,36.16,7.84,,34.97,290.2,1.23,58.65,node1
2013-09-25 05:00:01,255.64,7.69,,,,,,,,,node1
2013-09-25 06:00:00,,,1.34,36.13,7.82,,34.96,289.8,1.24,58.67,node1
2013-09-25 06:00:01,255.34,7.69,,,,,,,,,node1
2013-09-25 07:00:00,,,1.33,,,,,290.1,1.23,58.65,node1
2013-09-25 07:00:02,255.04,7.68,,36.17,7.81,,35.01,,,,node1
2013-09-25 08:00:00,,,,,,,,289.7,1.22,58.69,node1
2013-09-25 08:00:01,,,1.35,,,,,,,,node1
2013-09-25 08:00:02,254.81,7.68,,36.15,7.82,,34.98,,,,node1
2013-09-25 09:00:00,,,,,,,,290.1,1.23,58.67,node1
2013-09-25 09:00:01,,,1.38,,,,,,,,node1
2013-09-25 09:00:02,254.71,7.78,,36.25,7.91,,35.0,,,,node1
2013-09-25 10:00:00,,,,,,,,289.7,1.23,58.68,node1
2013-09-25 10:00:01,,,2.54,,,,,,,,node1
2013-09-25 10:00:02,254.78,7.74,,36.2,7.88,,34.98,,,,node1
2013-09-25 11:00:00,254.97,7.78,,,,,,290.1,1.25,58.66,node1
2013-09-25 11:00:01,,,1.2,,,,,,,,node1
2013-09-25 11:00:02,,,,36.22,7.93,,34.95,,,,node1
2013-09-25 12:00:00,255.25,7.75,,,,,,290.0,1.21,58.62,node1
2013-09-25 12:00:01,,,1.36,,,,,,,,node1
2013-09-25 12:00:02,,,,36.17,7.92,,34.9,,,,node1
2013-09-25 13:00:00,255.53,7.76,,,,,,289.8,1.24,58.66,node1
2013-09-25 13:00:01,,,0.0,,,,,,,,node1
2013-09-25 13:00:02,,,,36.18,7.92,,34.91,,,,node1
2013-09-25 14:00:00,255.77,7.77,2.19,,,,,290.2,1.25,58.65,node1
2013-09-25 14:00:02,,,,36.28,8.0,,34.94,,,,node1
2013-09-25 15:00:00,,,1.41,,,,,289.7,1.25,58.69,node1
2013-09-25 15:00:01,255.88,7.77,,,,,,,,,node1
2013-09-25 15:00:02,,,,36.21,7.96,,34.91,,,,node1
2013-09-25 16:00:00,,,1.67,,,,,290.2,1.22,58.65,node1
2013-09-25 16:00:01,255.85,7.8,,,,,,,,,node1
2013-09-25 16:00:02,,,,36.25,8.0,,34.91,,,,node1
2013-09-25 17:00:00,,,1.39,,,,,289.8,1.24,58.67,node1
2013-09-25 17:00:01,255.7,7.81,,,,,,,,,node1
2013-09-25 17:00:02,,,,36.2,8.03,,34.83,,,,node1
2013-09-25 18:00:00,,,1.34,,,,,290.2,1.25,58.64,node1
2013-09-25 18:00:01,255.45,7.78,,,,,,,,,node1
2013-09-25 18:00:02,,,,36.17,7.97,,34.85,,,,node1
2013-09-25 19:00:00,,,1.28,,,,,289.8,1.24,58.7,node1
2013-09-25 19:00:01,255.17,7.74,,,,,,,,,node1
2013-09-25 19:00:02,,,,36.15,7.9,,34.9,,,,node1
2013-09-25 20:00:00,,,,,,,,290.2,1.24,58.64,node1
2013-09-25 20:00:01,254.95,7.73,1.25,,,,,,,,node1
2013-09-25 20:00:02,,,,36.07,7.9,,34.82,,,,node1
2013-09-25 21:00:00,,,,,,,,289.8,1.23,58.69,node1
2013-09-25 21:00:01,254.81,7.71,1.29,,,,,,,,node1
2013-09-25 21:00:02,,,,36.09,7.87,,34.87,,,,node1
2013-09-25 22:00:00,,,,,,,,290.1,1.24,58.65,node1
2013-09-25 22:00:01,254.81,7.75,1.26,,,,,,,,node1
2013-09-25 22:00:02,,,,36.23,7.98,,34.91,,,,node1
2013-09-25 23:00:00,,,,,,,,289.8,1.23,58.68,node1
2013-09-25 23:00:01,,,1.39,,,,,,,,node1
2013-09-25 23:00:02,254.92,7.8,,36.32,8.06,,34.93,,,,node1
2013-09-26 00:00:00,,,1.49,,,,,290.3,1.21,58.64,node1
2013-09-26 00:00:02,255.13,7.77,,36.33,8.07,,34.93,,,,node1
2013-09-26 01:00:00,,,1.33,,,,,289.9,1.22,58.68,node1
2013-09-26 01:00:02,255.39,7.75,,36.28,7.98,,34.96,,,,node1
2013-09-26 02:00:00,,,0.0,,,,,290.2,1.23,58.64,node1
2013-09-26 02:00:02,255.62,7.72,,36.21,7.89,,34.98,,,,node1
2013-09-26 03:00:00,,,1.29,,,,,289.8,1.21,58.69,node1
2013-09-26 03:00:02,255.76,7.71,,36.19,7.86,,34.99,,,,node1
2013-09-26 04:00:00,255.78,7.72,1.36,,,,,290.1,1.25,58.67,node1
2013-09-26 04:00:02,,,,36.2,7.86,,35.0,,,,node1
2013-09-26 05:00:00,255.68,7.72,,,,,,289.8,1.21,58.7,node1
2013-09-26 05:00:01,,,1.31,,,,,,,,node1
2013-09-26 05:00:02,,,,36.19,7.85,,35.0,,,,node1
2013-09-26 06:00:00,255.48,7.71,,,,,,290.1,1.25,58.65,node1
2013-09-26 06:00:01,,,1.28,,,,,,,,node1
2013-09-26 06:00:02,,,,36.19,7.85,,35.0,,,,node1
2013-09-26 07:00:00,255.23,7.71,,,,,,290.0,1.24,58.67,node1
2013-09-26 07:00:01,,,1.26,,,,,,,,node1
2013-09-26 07:00:02,,,,36.19,7.84,,35.01,,,,node1
2013-09-26 08:00:00,,,,,,,,289.7,1.23,58.67,node1
2013-09-26 08:00:01,255.01,7.75,0.0,,,,,,,,node1
2013-09-26 08:00:02,,,,36.23,7.88,,35.01,,,,node1
2013-09-26 09:00:00,,,,,,,,290.2,1.22,58.67,node1
2013-09-26 09:00:01,254.86,7.88,0.0,,,,,,,,node1
2013-09-26 09:00:02,,,,36.36,8.02,,35.01,,,,node1
2013-09-26 10:00:00,,,,,,,,289.8,1.24,58.7,node1
2013-09-26 10:00:01,254.81,7.92,1.39,,,,,,,,node1
2013-09-26 10:00:02,,,,36.4,8.05,,35.02,,,,node1
2013-09-26 11:00:00,,,1.28,,,,,290.3,1.26,58.67,node1
2013-09-26 11:00:01,254.89,7.89,,,,,,,,,node1
2013-09-26 11:00:02,,,,36.36,8.02,,35.01,,,,node1
2013-09-26 12:00:00,,,1.3,,,,,289.8,1.24,58.68,node1
2013-09-26 12:00:01,255.07,7.84,,,,,,,,,node1
2013-09-26 12:00:02,,,,36.29,7.98,,34.97,,,,node1
2013-09-26 13:00:00,,,1.44,,,,,290.2,1.25,58.65,node1
2013-09-26 13:00:01,255.3,7.81,,,,,,,,,node1
2013-09-26 13:00:02,,,,36.26,7.96,,34.96,,,,node1
2013-09-26 14:00:00,,,1.37,,,,,289.8,1.23,58.67,node1
2013-09-26 14:00:01,255.53,7.8,,,,,,,,,node1
2013-09-26 14:00:02,,,,36.24,7.95,,34.95,,,,node1
2013-09-26 15:00:00,,,1.35,,,,,290.2,1.2,58.66,node1
2013-09-26 15:00:01,255.7,7.76,,,,,,,,,node1
2013-09-26 15:00:02,,,,36.19,7.9,,34.95,,,,node1
2013-09-26 16:00:00,,,,,,,,289.7,1.24,58.67,node1
2013-09-26 16:00:01,,,1.3,,,,,,,,node1
2013-09-26 16:00:02,255.77,7.7,,36.1,7.85,,34.9,,,,node1
2013-09-26 17:00:00,,,,,,,,290.1,1.24,58.66,node1
2013-09-26 17:00:01,,,1.3,,,,,,,,node1
2013-09-26 17:00:02,255.72,7.65,,36.04,7.82,,34.86,,,,node1
2013-09-26 18:00:00,,,,,,,,289.8,1.22,58.66,node1
2013-09-26 18:00:01,,,1.94,,,,,,,,node1
2013-09-26 18:00:02,255.58,7.76,,36.18,7.9,,34.93,,,,node1
2013-09-26 19:00:00,,,,,,,,290.2,1.21,58.67,node1
2013-09-26 19:00:01,,,1.57,,,,,,,,node1
2013-09-26 19:00:02,255.38,7.77,,36.22,7.92,,34.96,,,,node1
2013-09-26 20:00:00,255.16,7.77,,,,,,289.7,1.22,58.69,node1
2013-09-26 20:00:01,,,1.76,,,,,,,,node1
2013-09-26 20:00:02,,,,36.23,7.92,,34.97,,,,node1
2013-09-26 21:00:00,254.98,7.77,,,,,,290.1,1.23,58.65,node1
2013-09-26 21:00:01,,,1.37,,,,,,,,node1
2013-09-26 21:00:02,,,,36.22,7.9,,34.98,,,,node1
2013-09-26 22:00:00,254.89,7.77,1.29,,,,,289.8,1.23,58.68,node1
2013-09-26 22:00:02,,,,36.23,7.9,,34.99,,,,node1
2013-09-26 23:00:00,254.89,7.76,0.0,,,,,289.8,1.22,58.68,node1
2013-09-26 23:00:02,,,,36.22,7.89,,34.99,,,,node1
2013-09-27 00:00:00,,,1.33,,,,,289.9,1.19,58.69,node1
2013-09-27 00:00:01,255.0,7.76,,,,,,,,,node1
2013-09-27 00:00:02,,,,36.23,7.89,,35.0,,,,node1
2013-09-27 01:00:00,,,0.0,,,,,289.8,1.23,58.7,node1
2013-09-27 01:00:01,255.17,7.72,,,,,,,,,node1
2013-09-27 01:00:02,,,,36.2,7.88,,34.98,,,,node1
2013-09-27 02:00:00,,,1.3,,,,,290.1,1.23,58.66,node1
2013-09-27 02:00:01,255.38,7.7,,36.18,7.84,,34.99,,,,node1
2013-09-27 03:00:00,,,,,,,,289.8,1.21,58.72,node1
2013-09-27 03:00:01,255.54,7.94,1.16,36.45,8.08,,35.04,,,,node1
2013-09-27 04:00:00,,,,,,,,290.3,1.25,58.66,node1
2013-09-27 04:00:01,255.65,7.99,0.0,36.5,8.13,,35.05,,,,node1
2013-09-27 05:00:00,,,,,,,,289.9,1.23,58.71,node1
2013-09-27 05:00:01,255.66,7.98,0.0,36.48,8.12,,35.04,,,,node1
2013-09-27 06:00:00,,,,,,,,290.4,1.21,58.66,node1
2013-09-27 06:00:01,255.57,7.89,0.0,36.37,8.01,,35.03,,,,node1
2013-09-27 07:00:00,,,,,,,,289.8,1.23,58.69,node1
2013-09-27 07:00:01,255.42,7.85,0.0,36.33,7.97,,35.03,,,,node1
2013-09-27 08:00:00,,,,,,,,290.2,1.25,58.67,node1
2013-09-27 08:00:01,,,1.3,36.26,7.92,,35.0,,,,node1
2013-09-27 08:00:02,255.23,7.79,,,,,,,,,node1
2013-09-27 09:00:00,,,1.37,,,,,289.8,1.25,58.68,node1
2013-09-27 09:00:01,,,,36.21,7.85,,35.02,,,,node1
2013-09-27 09:00:02,255.06,7.74,,,,,,,,,node1
2013-09-27 10:00:00,,,1.48,,,,,290.2,1.23,58.68,node1
2013-09-27 10:00:01,,,,36.25,7.9,,35.01,,,,node1
2013-09-27 10:00:02,254.95,7.77,,,,,,,,,node1
2013-09-27 11:00:00,254.93,7.81,1.32,,,,,289.8,1.22,58.7,node1
2013-09-27 11:00:01,,,,36.3,7.94,,35.02,,,,node1
2013-09-27 12:00:00,254.99,7.83,1.3,,,,,290.2,1.23,58.67,node1
2013-09-27 12:00:01,,,,36.29,7.96,,34.99,,,,node1
2013-09-27 13:00:00,255.13,7.84,1.41,,,,,289.8,1.24,58.68,node1
2013-09-27 13:00:01,,,,36.29,7.98,,34.97,,,,node1
2013-09-27 14:00:00,255.31,7.8,,,,,,290.3,1.24,58.68,node1
2013-09-27 14:00:01,,,1.19,36.23,7.94,,34.95,,,,node1
2013-09-27 15:00:00,255.49,7.78,,,,,,289.9,1.23,58.67,node1
2013-09-27 15:00:01,,,1.54,36.21,7.92,,34.95,,,,node1
2013-09-27 16:00:00,,,,,,,,289.9,1.21,58.66,node1
2013-09-27 16:00:01,255.62,7.74,1.29,36.14,7.88,,34.91,,,,node1
2013-09-27 17:00:00,,,,,,,,290.2,1.24,58.67,node1
2013-09-27 17:00:01,255.69,7.72,1.23,36.12,7.86,,34.91,,,,node1
2013-09-27 18:00:00,,,,,,,,289.9,1.21,58.68,node1
2013-09-27 18:00:01,255.66,7.72,1.31,36.11,7.87,,34.89,,,,node1
2013-09-27 19:00:00,,,0.0,,,,,290.3,1.21,58.66,node1
2013-09-27 19:00:01,255.55,7.79,,36.21,7.99,,34.88,,,,node1
2013-09-27 20:00:00,,,0.0,,,,,290.0,1.23,58.68,node1
2013-09-27 20:00:01,255.41,7.99,,36.46,8.13,,35.01,,,,node1
2013-09-27 21:00:00,,,0.0,,,,,290.5,1.22,58.63,node1
2013-09-27 21:00:01,255.23,8.0,,36.49,8.17,,35.0,,,,node1
2013-09-27 22:00:00,,,0.0,,,,,290.0,1.24,58.66,node1
2013-09-27 22:00:01,255.07,7.98,,36.45,8.14,,34.98,,,,node1
2013-09-27 23:00:00,,,0.0,,,,,290.4,1.21,58.65,node1
2013-09-27 23:00:01,254.98,7.75,,36.21,7.89,,34.98,,,,node1
2013-09-28 00:00:00,,,1.16,,,,,289.8,1.23,58.66,node1
2013-09-28 00:00:01,,,,36.43,8.06,,35.04,,,,node1
2013-09-28 00:00:02,254.98,7.93,,,,,,,,,node1
2013-09-28 01:00:00,,,,,,,,290.3,1.24,58.64,node1
2013-09-28 01:00:01,,,1.51,36.31,7.97,,35.0,,,,node1
2013-09-28 01:00:02,255.03,7.83,,,,,,,,,node1
2013-09-28 02:00:00,,,,,,,,289.8,1.23,58.69,node1
2013-09-28 02:00:01,,,1.16,36.39,8.03,,35.03,,,,node1
2013-09-28 02:00:02,255.18,7.91,,,,,,,,,node1
2013-09-28 03:00:00,,,,,,,,290.3,1.22,58.64,node1
2013-09-28 03:00:01,,,1.46,36.45,8.16,,34.96,,,,node1
2013-09-28 03:00:02,255.32,7.95,,,,,,,,,node1
2013-09-28 04:00:00,255.47,7.93,,,,,,289.9,1.23,58.67,node1
2013-09-28 04:00:01,,,1.21,36.42,8.07,,35.02,,,,node1
2013-09-28 05:00:00,255.57,7.9,1.19,,,,,290.3,1.24,58.65,node1
2013-09-28 05:00:01,,,,36.38,8.04,,35.01,,,,node1
2013-09-28 06:00:00,255.6,7.9,1.28,,,,,289.9,1.24,58.68,node1
2013-09-28 06:00:01,,,,36.42,8.04,,35.05,,,,node1
2013-09-28 07:00:00,255.56,8.04,1.27,,,,,290.3,1.24,58.66,node1
2013-09-28 07:00:01,,,,36.55,8.17,,35.06,,,,node1
2013-09-28 08:00:00,,,1.2,,,,,289.9,1.23,58.69,node1
2013-09-28 08:00:01,255.45,7.99,,36.48,8.12,,35.04,,,,node1
2013-09-28 09:00:00,,,1.26,,,,,290.1,1.21,58.63,node1
2013-09-28 09:00:01,255.31,8.0,,36.49,8.13,,35.04,,,,node1
2013-09-28 10:00:00,,,1.23,,,,,289.9,1.23,58.68,node1
2013-09-28 10:00:01,255.16,7.94,,36.4,8.07,,35.0,,,,node1
2013-09-28 11:00:00,,,,,,,,290.0,1.22,58.7,node1
2013-09-28 11:00:01,255.06,7.81,1.16,36.26,7.93,,34.99,,,,node1
2013-09-28 12:00:00,,,,,,,,290.2,1.23,58.64,node1
2013-09-28 12:00:01,255.01,7.72,1.66,36.12,7.85,,34.92,,,,node1
2013-09-28 13:00:00,,,,,,,,289.7,1.22,58.68,node1
2013-09-28 13:00:01,255.05,7.74,1.62,36.16,7.89,,34.92,,,,node1
2013-09-28 14:00:00,,,,,,,,290.1,1.24,58.65,node1
2013-09-28 14:00:01,255.15,7.67,1.19,36.06,7.8,,34.91,,,,node1
2013-09-28 15:00:00,,,,,,,,289.7,1.21,58.68,node1
2013-09-28 15:00:01,255.31,7.61,1.38,35.98,7.72,,34.9,,,,node1
2013-09-28 16:00:00,,,,,,,,290.1,1.21,58.64,node1
2013-09-28 16:00:01,255.47,7.85,1.41,36.33,8.0,,35.0,,,,node1
2013-09-28 17:00:00,,,0.0,,,,,289.8,1.25,58.67,node1
2013-09-28 17:00:01,,,,36.35,7.99,,35.03,,,,node1
2013-09-28 17:00:02,255.61,7.85,,,,,,,,,node1
2013-09-28 18:00:00,,,0.0,,,,,290.2,1.22,58.67,node1
2013-09-28 18:00:01,,,,36.34,8.03,,34.98,,,,node1
2013-09-28 18:00:02,255.68,7.83,,,,,,,,,node1
2013-09-28 19:00:00,,,1.1,,,,,289.8,1.24,58.67,node1
2013-09-28 19:00:01,,,,36.23,7.92,,34.97,,,,node1
2013-09-28 19:00:02,255.69,7.77,,,,,,,,,node1
2013-09-28 20:00:00,,,1.15,,,,,290.2,1.22,58.66,node1
2013-09-28 20:00:01,,,,36.33,7.97,,35.03,,,,node1
2013-09-28 20:00:02,255.62,7.83,,,,,,,,,node1
2013-09-28 21:00:00,255.49,7.96,1.21,,,,,289.8,1.24,58.68,node1
2013-09-28 21:00:01,,,,36.47,8.07,,35.08,,,,node1
2013-09-28 22:00:00,255.33,7.88,,,,,,290.1,1.23,58.66,node1
2013-09-28 22:00:01,,,0.0,36.4,8.01,,35.06,,,,node1
2013-09-28 23:00:00,255.17,8.1,,,,,,289.9,1.23,58.67,node1
2013-09-28 23:00:01,,,0.0,36.61,8.26,,35.04,,,,node1
2013-09-29 00:00:00,255.06,8.19,,,,,,290.4,1.25,58.64,node1
2013-09-29 00:00:01,,,0.0,36.7,8.35,,35.04,,,,node1
2013-09-29 01:00:00,,,,,,,,290.1,1.23,58.67,node1
2013-09-29 01:00:01,255.0,8.13,0.0,36.65,8.3,,35.04,,,,node1
2013-09-29 02:00:00,,,,,,,,290.2,1.22,58.66,node1
2013-09-29 02:00:01,255.03,8.09,1.7,36.62,8.27,,35.04,,,,node1
2013-09-29 03:00:00,,,1.07,,,,,290.1,1.27,58.68,node1
2013-09-29 03:00:01,255.13,7.96,,36.47,8.09,,35.06,,,,node1
2013-09-29 04:00:00,,,1.41,,,,,290.1,1.25,58.67,node1
2013-09-29 04:00:01,255.27,7.97,,36.49,8.11,,35.06,,,,node1
2013-09-29 05:00:00,,,1.18,,,,,290.3,1.25,58.65,node1
2013-09-29 05:00:01,255.43,7.96,,36.47,8.09,,35.06,,,,node1
2013-09-29 06:00:00,,,1.24,,,,,289.9,1.23,58.67,node1
2013-09-29 06:00:01,255.55,7.99,,36.49,8.14,,35.03,,,,node1
2013-09-29 07:00:00,,,1.3,,,,,290.4,1.22,58.65,node1
2013-09-29 07:00:01,255.62,7.98,,36.49,8.09,,35.08,,,,node1
2013-09-29 08:00:00,,,1.19,,,,,290.0,1.23,58.67,node1
2013-09-29 08:00:01,255.6,8.02,,36.52,8.15,,35.05,,,,node1
2013-09-29 09:00:00,,,,,,,,290.4,1.21,58.64,node1
2013-09-29 09:00:01,,,1.24,36.21,7.96,,34.91,,,,node1
2013-09-29 09:00:02,255.52,7.82,,,,,,,,,node1
2013-09-29 10:00:00,,,,,,,,289.9,1.22,58.68,node1
2013-09-29 10:00:01,,,1.28,36.09,7.85,,34.89,,,,node1
2013-09-29 10:00:02,255.39,7.73,,,,,,,,,node1
2013-09-29 11:00:00,,,,,,,,290.2,1.22,58.66,node1
2013-09-29 11:00:01,,,1.24,35.92,7.76,,34.79,,,,node1
2013-09-29 11:00:02,255.23,7.6,,,,,,,,,node1
2013-09-29 12:00:00,,,,,,,,289.7,1.24,58.67,node1
2013-09-29 12:00:01,,,3.43,35.89,7.75,,34.77,,,,node1
2013-09-29 12:00:02,255.11,7.59,,,,,,,,,node1
2013-09-29 13:00:00,255.02,7.58,1.36,,,,,290.0,1.22,58.66,node1
2013-09-29 13:00:01,,,,35.87,7.74,,34.76,,,,node1
2013-09-29 14:00:00,255.03,7.84,1.19,,,,,289.7,1.22,58.66,node1
2013-09-29 14:00:01,,,,36.26,7.96,,34.96,,,,node1
2013-09-29 15:00:00,255.11,7.59,0.0,,,,,290.1,1.18,58.65,node1
2013-09-29 15:00:01,,,,35.89,7.75,,34.77,,,,node1
2013-09-29 16:00:00,255.25,7.59,0.0,,,,,289.7,1.19,58.67,node1
2013-09-29 16:00:01,,,,35.91,7.76,,34.78,,,,node1
2013-09-29 17:00:00,,,0.0,,,,,290.0,1.23,58.66,node1
2013-09-29 17:00:01,255.42,7.81,,36.23,7.95,,34.94,,,,node1
2013-09-29 18:00:00,,,,,,,,289.9,1.23,58.68,node1
2013-09-29 18:00:01,255.59,7.94,0.0,36.42,8.09,,35.0,,,,node1
2013-09-29 19:00:00,,,,,,,,289.8,1.21,58.68,node1
2013-09-29 19:00:01,255.7,8.02,1.3,36.5,8.15,,35.03,,,,node1
2013-09-29 20:00:00,,,,,,,,290.1,1.23,58.69,node1
2013-09-29 20:00:01,255.74,8.23,0.0,36.7,8.35,,35.04,,,,node1
2013-09-29 21:00:00,,,,,,,,290.1,1.23,58.65,node1
2013-09-29 21:00:01,255.69,8.15,0.0,36.63,8.27,,35.05,,,,node1
2013-09-29 22:00:00,,,1.59,,,,,290.4,1.21,58.65,node1
2013-09-29 22:00:01,255.56,8.17,,36.64,8.3,,35.03,,,,node1
2013-09-29 23:00:00,,,2.0,,,,,290.0,1.24,58.68,node1
2013-09-29 23:00:01,255.38,8.2,,36.65,8.34,,35.0,,,,node1
2013-09-30 00:00:00,,,1.79,,,,,290.5,1.24,58.64,node1
2013-09-30 00:00:01,255.2,8.22,,36.7,8.36,,35.03,,,,node1
2013-09-30 01:00:00,,,2.09,,,,,290.2,1.22,58.67,node1
2013-09-30 01:00:01,,,,36.71,8.39,,35.01,,,,node1
2013-09-30 01:00:02,255.04,8.22,,,,,,,,,node1
2013-09-30 02:00:00,,,,,,,,290.5,1.24,58.66,node1
2013-09-30 02:00:01,,,2.2,36.68,8.32,,35.05,,,,node1
2013-09-30 02:00:02,254.96,8.2,,,,,,,,,node1
2013-09-30 03:00:00,,,,,,,,290.0,1.22,58.69,node1
2013-09-30 03:00:01,,,1.62,36.61,8.24,,35.06,,,,node1
2013-09-30 03:00:02,254.97,8.12,,,,,,,,,node1
2013-09-30 04:00:00,,,,,,,,290.4,1.22,58.68,node1
2013-09-30 04:00:01,,,1.29,36.6,8.23,,35.06,,,,node1
2013-09-30 04:00:02,255.06,8.1,,,,,,,,,node1
2013-09-30 05:00:00,255.23,8.11,0.0,,,,,289.9,1.25,58.71,node1
2013-09-30 05:00:01,,,,36.6,8.24,,35.05,,,,node1
2013-09-30 06:00:00,255.41,8.12,0.0,,,,,290.5,1.21,58.66,node1
2013-09-30 06:00:01,,,,36.61,8.26,,35.04,,,,node1
2013-09-30 07:00:00,255.57,8.11,0.0,,,,,290.0,1.23,58.69,node1
2013-09-30 07:00:01,,,,36.61,8.25,,35.05,,,,node1
2013-09-30 08:00:00,255.67,8.12,0.0,,,,,290.5,1.23,58.67,node1
2013-09-30 08:00:01,,,,36.6,8.26,,35.03,,,,node1
2013-09-30 09:00:00,255.68,8.13,0.0,36.61,8.27,,35.03,290.0,1.24,58.7,node1
2013-09-30 10:00:00,,,1.61,36.58,8.25,,35.01,290.4,1.25,58.66,node1
2013-09-30 10:00:01,255.58,8.1,,,,,,,,,node1
2013-09-30 11:00:00,,,1.84,,,,,290.0,1.23,58.68,node1
2013-09-30 11:00:01,255.43,8.1,,36.58,8.24,,35.02,,,,node1
2013-09-30 12:00:00,,,1.48,36.14,7.91,,34.88,290.2,1.22,58.66,node1
2013-09-30 12:00:01,255.23,7.77,,,,,,,,,node1
2013-09-30 13:00:00,,,1.4,36.11,7.88,,34.88,290.0,1.23,58.65,node1
2013-09-30 13:00:01,255.04,7.74,,,,,,,,,node1
2013-09-30 14:00:00,,,1.39,36.09,7.87,,34.87,289.8,1.24,58.67,node1
2013-09-30 14:00:01,254.93,7.73,,,,,,,,,node1
2013-09-30 15:00:00,,,1.26,36.15,7.91,,34.89,289.7,1.24,58.67,node1
2013-09-30 15:00:01,254.91,7.77,,,,,,,,,node1
2013-09-30 16:00:00,,,1.54,36.16,7.93,,34.88,289.7,1.23,58.69,node1
2013-09-30 16:00:01,255.0,7.78,,,,,,,,,node1
2013-09-30 17:00:00,,,1.38,36.28,8.01,,34.93,290.1,1.2,58.66,node1
2013-09-30 17:00:01,255.17,7.87,,,,,,,,,node1
2013-09-30 18:00:00,,,1.35,36.16,7.94,,34.87,289.6,1.22,58.7,node1
2013-09-30 18:00:02,255.39,7.78,,,,,,,,,node1
2013-09-30 19:00:00,,,1.33,36.1,7.9,,34.85,290.0,1.22,58.68,node1
2013-09-30 19:00:02,255.59,7.75,,,,,,,,,node1
2013-09-30 20:00:00,,,1.4,36.43,8.15,,34.95,290.1,1.26,58.65,node1
2013-09-30 20:00:02,255.73,7.99,,,,,,,,,node1
2013-09-30 21:00:00,,,,36.52,8.21,,34.99,290.5,1.25,58.66,node1
2013-09-30 21:00:01,,,1.55,,,,,,,,node1
2013-09-30 21:00:02,255.78,8.08,,,,,,,,,node1
2013-09-30 22:00:00,255.71,8.05,1.52,36.49,8.2,,34.97,290.0,1.25,58.72,node1
2013-09-30 23:00:00,255.54,8.04,1.43,36.5,8.17,,35.01,290.4,1.22,58.69,node1
2013-10-01 00:00:00,255.31,8.04,1.36,36.5,8.16,,35.02,289.9,1.23,58.7,node1
2013-10-01 01:00:00,255.08,8.03,1.61,36.5,8.16,,35.02,290.3,1.23,58.69,node1
2013-10-01 02:00:00,,,,36.51,8.18,,35.01,290.3,1.22,58.71,node1
2013-10-01 02:00:01,254.9,8.04,1.59,,,,,,,,node1
2013-10-01 03:00:00,,,,36.52,8.17,,35.03,290.0,1.22,58.68,node1
2013-10-01 03:00:01,254.81,8.04,1.35,,,,,,,,node1
2013-10-01 04:00:00,,,,36.55,8.19,,35.04,290.4,1.22,58.7,node1
2013-10-01 04:00:01,254.84,8.07,1.45,,,,,,,,node1
2013-10-01 05:00:00,,,,36.55,8.19,,35.04,290.1,1.2,58.69,node1
2013-10-01 05:00:01,254.99,8.07,1.38,,,,,,,,node1
2013-10-01 06:00:00,,,,36.53,8.17,,35.04,290.4,1.23,58.7,node1
2013-10-01 06:00:01,255.22,8.05,1.4,,,,,,,,node1
2013-10-01 07:00:00,,,,36.55,8.19,,35.04,289.9,1.23,58.71,node1
2013-10-01 07:00:01,255.48,8.06,1.59,,,,,,,,node1
2013-10-01 08:00:00,,,,36.6,8.27,,35.02,290.5,1.22,58.71,node1
2013-10-01 08:00:01,255.69,8.11,1.6,,,,,,,,node1
2013-10-01 09:00:00,,,,36.6,8.27,,35.02,290.9,1.25,58.66,node1
2013-10-01 09:00:01,255.82,8.11,1.39,,,,,,,,node1
2013-10-01 10:00:00,,,,36.64,8.33,,35.0,290.3,1.23,58.69,node1
2013-10-01 10:00:01,,,1.55,,,,,,,,node1
2013-10-01 10:00:02,255.81,8.12,,,,,,,,,node1
2013-10-01 11:00:00,,,,36.6,8.26,,35.03,290.5,1.21,58.68,node1
2013-10-01 11:00:01,,,1.61,,,,,,,,node1
2013-10-01 11:00:02,255.69,8.11,,,,,,,,,node1
2013-10-01 12:00:00,,,,36.56,8.23,,35.01,290.1,1.21,58.68,node1
2013-10-01 12:00:01,,,1.49,,,,,,,,node1
2013-10-01 12:00:02,255.48,8.08,,,,,,,,,node1
2013-10-01 13:00:00,,,,36.58,8.21,,35.05,290.5,1.21,58.67,node1
2013-10-01 13:00:01,,,1.57,,,,,,,,node1
2013-10-01 13:00:02,255.23,8.08,,,,,,,,,node1
2013-10-01 14:00:00,255.02,8.06,,36.55,8.21,,35.02,290.0,1.24,58.72,node1
